{
  "type": "FeatureCollection",
  "features": [
    {
      "type": "Feature",
      "geometry": {
        "type": "Point",
        "coordinates": [
          21.010794639587402,
          52.2203859615242
        ]
      },
      "properties":{
        "name": "Gmach_Główny_Politechniki_Warszawskiej"
        "quest": "Różowy$_eklektyczny$_pełen_wiedzy"
      }
    },
    {
      "type": "Feature",
      "geometry": {
        "type": "Point",
        "coordinates": [
          21.011556386947632,
          52.22022164215549
        ]
      },
      "properties":{
        "name": "Plac_Politechniki"
        "quest": "Widoczny_z_rogu_Szczęki"
      }
    },
    {
      "type": "Feature",
      "geometry": {
        "type": "Point",
        "coordinates": [
          21.007726192474365,
          52.22127327560947
        ]
      },
      "properties":{
        "name": "Gmach_Fizyki"
        "quest": "Jego_doktorantką_była_dwukrotna_Noblistka"
      }
    },
    {
      "type": "Feature",
      "geometry": {
        "type": "Point",
        "coordinates": [
          21.008981466293335,
          52.220806616337725
        ]
      },
      "properties":{
        "name": "Komin_starej_kotłowni"
        "quest": "Kiedyś_ogrzewał_studentów$_aby_mieli_ciepło"
      }
    },
    {
      "type": "Feature",
      "geometry": {
        "type": "Point",
        "coordinates": [
          21.009292602539062,
          52.221831945752996
        ]
      },
      "properties":{
        "name": "Gmach_Chemii"
        "quest": "Czasami_w_piwnicy_mu_coś_ekspoduje"
      }
    },
    {
      "type": "Feature",
      "geometry": {
        "type": "Point",
        "coordinates": [
          21.008090972900387,
          52.22248262329559
        ]
      },
      "properties":{
        "name": "Gmach_Wydziału_Transportu"
        "quest": "Steruje_ruchem_rydwanów"
      }
    },
    {
      "type": "Feature",
      "geometry": {
        "type": "Point",
        "coordinates": [
          21.00538730621338,
          52.22185166339437
        ]
      },
      "properties":{
        "name": "Gmach_Lotniczy-MEiLu"
        "quest": "Silnik_odrzutowca"
      }
    },
    {
      "type": "Feature",
      "geometry": {
        "type": "Point",
        "coordinates": [
          21.010150909423825,
          52.21982070034421
        ]
      },
      "properties":{
        "name": "Instytut_Techniki_Cieplnej"
        "quest": "Wielka_Turbina"
      }
    },
    {
      "type": "Feature",
      "geometry": {
        "type": "Point",
        "coordinates": [
          21.011277437210083,
          52.21930144245507
        ]
      },
      "properties":{
        "name": "Gmach_Elektroniki"
        "quest": "Za_drzewami_pełno_komputerów"
      }
    },
    {
      "type": "Feature",
      "geometry": {
        "type": "Point",
        "coordinates": [
          21.006975173950195,
          52.22200283168733
        ]
      },
      "properties":{
        "name": "Gmach_Matematyki"
        "quest": "Nowoczesny$_pełen_liczb"
      }
    },
    {
      "type": "Feature",
      "geometry": {
        "type": "Polygon",
        "coordinates": [
          [
            [
              21.005001068115234,
              52.22294926495559
            ],
            [
              21.00510835647583,
              52.22017563262328
            ],
            [
              21.008927822113037,
              52.22005732217877
            ],
            [
              21.008970737457275,
              52.21992586575965
            ],
            [
              21.00889563560486,
              52.21865071830132
            ],
            [
              21.01009726524353,
              52.21863099923872
            ],
            [
              21.010043621063232,
              52.217539864130345
            ],
            [
              21.012972593307495,
              52.21742154666429
            ],
            [
              21.013015508651733,
              52.218308919977154
            ],
            [
              21.013305187225342,
              52.2185192577187
            ],
            [
              21.013412475585938,
              52.21899908696338
            ],
            [
              21.012446880340573,
              52.21974182611918
            ],
            [
              21.011749505996704,
              52.22037281599708
            ],
            [
              21.00911021232605,
              52.22216714446558
            ],
            [
              21.00861668586731,
              52.2224366161058
            ],
            [
              21.00808024406433,
              52.22281124469361
            ],
            [
              21.005001068115234,
              52.22294926495559
            ]
          ]
        ]
      },
      "properties": {
          "name":"range"
       }
    }
  ]
}